City_ID,City,Lat,Lng,Max Temp,Humidity,Cloudiness,Wind Speed,Country,Date
0,port mathurin,-19.6833,63.4167,299.95,75,1,1.66,MU,1746490673
1,bredasdorp,-34.5322,20.0403,286.03,91,0,1.4,ZA,1746490674
2,puerto natales,-51.7236,-72.4875,276.01,88,100,1.12,CL,1746490676
3,labytnangi,66.6572,66.4183,268.21,94,69,1.9,RU,1746490677
4,aasiaat,68.7098,-52.8699,269.49,95,100,8.85,GL,1746490678
5,west island,-12.1568,96.8225,301.14,94,20,3.6,CC,1746490679
6,kuqa,41.7278,82.9364,296.21,19,97,2.9,CN,1746490680
7,agios nikolaos,35.1914,25.7133,290.24,76,34,2.72,GR,1746490681
8,olonkinbyen,70.9221,-8.7187,272.5,86,100,8.8,SJ,1746490683
9,blackmans bay,-43.0167,147.3167,291.22,65,100,0.89,AU,1746490684
10,berdigestyakh,62.0989,126.6992,275.81,56,27,2.8,RU,1746490685
11,igarka,67.4667,86.5833,274.76,96,100,3.0,RU,1746490686
12,puerto ayora,-0.7393,-90.3518,297.9,96,36,2.6,EC,1746490687
13,mogocha,53.7333,119.7667,280.7,40,21,0.37,RU,1746490688
14,st albans,51.75,-0.3333,279.4,84,100,2.57,GB,1746490690
15,ilulissat,69.2167,-51.1,271.16,86,100,6.69,GL,1746490673
16,adamstown,-25.066,-130.1015,297.36,73,46,4.02,PN,1746490692
17,bamusso,4.4591,8.9027,299.58,85,100,1.48,CM,1746490693
18,ishigaki,24.3448,124.1572,302.22,84,75,4.63,JP,1746490694
19,albany,42.6001,-73.9662,286.83,96,100,3.36,US,1746490408
20,ciudad lazaro cardenas,17.9583,-102.2,301.6,68,80,5.22,MX,1746490697
21,badger,64.8,-147.5333,283.35,63,75,7.2,US,1746490698
22,bilibino,68.0546,166.4372,269.58,67,3,1.5,RU,1746490699
23,nar'yan-mar,67.6713,53.087,274.32,99,100,5.31,RU,1746490700
24,thompson,55.7435,-97.8558,284.24,50,75,5.66,CA,1746490702
25,port-aux-francais,-49.35,70.2167,279.03,99,100,6.78,TF,1746490703
26,tshabong,-26.05,22.45,289.46,49,0,4.41,BW,1746490704
27,ust-nera,64.5667,143.2,273.43,87,99,2.2,RU,1746490705
28,gourdon,44.75,1.5,279.13,89,33,1.92,FR,1746490706
29,villa de arista,22.65,-100.8333,305.62,8,11,8.52,MX,1746490707
30,valle de la pascua,9.2155,-66.0073,302.04,61,41,1.85,VE,1746490709
31,otjiwarongo,-20.4637,16.6477,289.25,61,1,4.87,NA,1746490710
32,auki,-8.7676,160.7034,303.46,65,89,1.06,SB,1746490711
33,moskovskiy,55.5991,37.355,277.54,84,75,7.0,RU,1746490714
34,yellowknife,62.456,-114.3525,272.27,68,20,1.79,CA,1746490605
35,sibolga,1.7427,98.7792,298.68,81,95,1.23,ID,1746490456
36,isafjordur,66.0755,-23.124,277.69,88,89,3.14,IS,1746490718
37,st. john's,47.5649,-52.7093,274.8,79,40,6.69,CA,1746490719
38,chinchilla,-26.75,150.6333,295.38,66,59,1.79,AU,1746490720
39,lerwick,60.1545,-1.1494,281.69,82,100,5.39,GB,1746490721
40,avarua,-21.2078,-159.775,300.18,61,75,4.12,CK,1746490504
41,beyla,8.6833,-8.6333,294.43,92,100,1.23,GN,1746490724
42,colonia aurora,-27.4743,-54.525,296.79,61,47,0.68,AR,1746490725
43,noormarkku,61.5927,21.8685,277.03,93,100,3.09,FI,1746490726
44,al bayda',32.7627,21.7551,292.99,18,39,8.41,LY,1746490727
45,punta arenas,-53.15,-70.9167,279.21,81,0,5.66,CL,1746490728
46,turpan,42.9333,89.1667,298.23,19,100,1.68,CN,1746490731
47,college,64.8569,-147.8028,283.12,49,75,7.2,US,1746490733
48,ushuaia,-54.8,-68.3,275.96,87,75,3.09,AR,1746490503
49,grytviken,-54.2811,-36.5092,274.44,98,100,4.81,GS,1746490735
50,i-n-salah,27.1935,2.4607,302.91,13,100,3.72,DZ,1746490562
51,hermanus,-34.4187,19.2345,287.78,89,0,1.42,ZA,1746490738
52,edinburgh of the seven seas,-37.0676,-12.3116,290.08,81,100,15.31,SH,1746490739
53,saipan,15.1355,145.701,304.54,72,20,7.72,MP,1746490740
54,karratha,-20.7377,116.8463,299.93,27,19,5.98,AU,1746490741
55,waitangi,-43.9535,-176.5597,286.25,70,100,5.3,NZ,1746490742
56,luderitz,-26.6481,15.1594,293.19,52,0,3.12,NA,1746490743
57,qaqortoq,60.7167,-46.0333,271.9,89,68,1.1,GL,1746490744
58,bethel,41.3712,-73.414,288.23,91,100,2.24,US,1746490746
59,mogadishu,2.0371,45.3438,299.77,81,88,5.34,SO,1746490747
60,khorugh,37.4897,71.553,277.42,58,0,0.61,TJ,1746490748
61,jiuquan,39.7432,98.5174,290.66,19,79,1.93,CN,1746490749
62,illela,13.7292,5.2975,302.41,12,7,3.19,NG,1746490750
63,sitka,57.0531,-135.33,283.09,76,75,5.14,US,1746490752
64,hawaiian paradise park,19.5933,-154.9731,300.88,64,100,4.12,US,1746490753
65,wailua homesteads,22.0669,-159.378,299.59,82,40,5.66,US,1746490754
66,chonchi,-42.6128,-73.8092,282.66,93,100,4.75,CL,1746490755
67,labrador city,52.9463,-66.9114,278.1,38,0,5.66,CA,1746490756
68,kavaratti,10.5669,72.642,302.36,71,99,5.65,IN,1746490757
69,gobernador virasora,-28.05,-56.0333,296.48,87,10,0.89,AR,1746490759
70,oranjemund,-28.55,16.4333,288.31,74,2,2.57,NA,1746490760
71,pangody,65.85,74.4859,273.39,100,100,2.08,RU,1746490761
72,kuta,-8.7233,115.1723,301.09,93,100,7.01,ID,1746490502
73,taungoo,18.9333,96.4333,298.82,67,53,1.4,MM,1746490763
74,port alfred,-33.5906,26.891,292.54,49,0,4.34,ZA,1746490764
75,karatau,43.1667,70.4667,288.35,36,14,3.22,KZ,1746490765
76,butembo,0.15,29.2833,286.45,93,72,1.48,CD,1746490767
77,kodiak,57.79,-152.4072,278.88,87,75,3.09,US,1746490768
78,benguela,-12.5763,13.4055,297.4,90,64,1.88,AO,1746490770
79,ixtapa,20.7,-105.2,298.83,73,40,5.14,MX,1746490772
80,kourou,5.1552,-52.6478,298.63,84,52,2.53,GF,1746490773
81,ribeira grande,38.5167,-28.7,290.25,88,81,4.92,PT,1746490774
82,fort bragg,35.139,-79.006,296.9,52,48,1.34,US,1746490648
83,mahanoro,-19.9,48.8,294.83,92,100,4.87,MG,1746490776
84,balkanabat,39.5108,54.3671,297.34,38,100,1.07,TM,1746490777
85,enewetak,11.3474,162.3373,300.76,77,7,7.88,MH,1746490779
86,pandan,14.0453,124.1694,301.97,75,87,1.08,PH,1746490780
87,eenhana,-17.4667,16.3333,293.92,54,52,2.92,NA,1746490781
88,san antonio de pale,-1.4014,5.6325,300.53,80,100,6.39,GQ,1746490782
89,vinchia,22.2,71.3667,300.42,74,74,5.99,IN,1746490783
90,talnakh,69.4865,88.3972,271.68,95,87,2.41,RU,1746490784
91,tual,-5.6667,132.75,301.08,78,99,4.58,ID,1746490785
92,nova sintra,14.8667,-24.7167,296.76,82,5,5.68,CV,1746490787
93,nusaybin,37.0778,41.2178,287.13,81,99,0.36,TR,1746490789
94,nuuk,64.1835,-51.7216,270.49,93,100,3.6,GL,1746490579
95,tsiombe,-25.3,45.4833,293.32,60,18,5.39,MG,1746490791
96,lata,40.1629,-8.3327,282.77,97,28,0.97,PT,1746490792
97,whitehorse,60.7161,-135.0538,284.71,42,40,10.8,CA,1746490553
98,hobyo,5.3505,48.5268,302.34,64,95,5.65,SO,1746490795
99,vieste,41.8825,16.175,290.53,74,59,4.04,IT,1746490796
100,pitoa,9.3833,13.5333,305.57,26,69,0.26,CM,1746490797
101,kingston,17.997,-76.7936,300.68,78,40,6.69,JM,1746490765
102,anadyr,64.75,177.4833,266.43,73,0,3.0,RU,1746490799
103,kruisfontein,-34.0033,24.7314,286.84,52,0,2.62,ZA,1746490800
104,singkil,-7.9855,111.4161,301.37,88,77,1.64,ID,1746490802
105,dhidhdhoo,6.8833,73.1,302.31,76,100,6.62,MV,1746490803
106,papatowai,-46.5619,169.4708,287.3,54,53,0.84,NZ,1746490804
107,paracuru,-3.41,-39.0306,299.03,86,12,4.01,BR,1746490805
108,mar del plata,-38.0023,-57.5575,286.45,82,20,6.71,AR,1746490779
109,takehara,34.3383,132.9167,288.17,94,75,5.66,JP,1746490807
110,khenchela,35.4358,7.1433,287.01,65,50,0.45,DZ,1746490809
111,atbasar,51.8,68.3333,286.59,57,50,3.51,KZ,1746490810
112,toliara,-23.35,43.6667,293.02,70,0,6.87,MG,1746490811
113,jerome,42.7241,-114.5186,286.86,66,100,10.8,US,1746490812
114,tazacorte,28.629,-17.9293,292.69,89,100,1.03,ES,1746490814
115,cruzeiro do sul,-29.5128,-51.9853,294.55,94,45,0.47,BR,1746490815
116,flin flon,54.7682,-101.865,285.19,27,100,5.41,CA,1746490810
117,holualoa,19.6228,-155.9522,296.94,92,82,0.45,US,1746490818
118,long beach,33.767,-118.1892,291.48,76,100,3.6,US,1746490577
119,kuraymah,18.55,31.85,295.42,21,0,5.77,SD,1746490820
120,ahmadpur east,29.1431,71.2598,298.93,57,75,0.58,PK,1746490821
121,kurchatov,51.6601,35.6521,284.35,86,100,4.09,RU,1746490591
122,as samawah,31.332,45.2944,297.64,37,0,6.16,IQ,1746490824
123,stanley,54.868,-1.6985,274.0,88,27,1.29,GB,1746490825
124,marakkanam,12.2,79.95,301.58,79,73,3.81,IN,1746490826
125,susuman,62.7833,148.1667,270.07,80,95,1.06,RU,1746490827
126,abadiania,-16.2042,-48.7069,292.66,70,76,1.53,BR,1746490828
127,la'ie,21.6477,-157.9253,300.4,74,86,4.02,US,1746490829
128,nyurba,63.2842,118.3319,272.51,96,100,0.7,RU,1746490830
129,uturoa,-16.7333,-151.4333,300.38,72,3,3.23,PF,1746490832
130,lobujya,27.95,86.8167,263.28,78,63,2.88,NP,1746490833
131,pitanga,-24.7572,-51.7614,289.71,82,16,0.82,BR,1746490818
132,bamboo flat,11.7,92.7167,300.27,73,79,2.31,IN,1746490835
133,ad dabbah,18.05,30.95,295.13,20,0,4.97,SD,1746490838
134,mount pearl,47.5166,-52.7813,274.34,79,40,6.69,CA,1746490839
135,yashkul',46.1711,45.3435,285.62,72,12,2.66,RU,1746490742
136,madalena,41.2162,-8.3345,285.54,94,4,0.9,PT,1746490842
137,inirida,3.8653,-67.9239,297.38,96,34,0.91,CO,1746490843
138,iqaluit,63.7506,-68.5145,265.0,67,100,4.12,CA,1746490844
139,carloforte,39.145,8.3058,290.24,88,100,6.06,IT,1746490845
140,kerikeri,-35.2268,173.9474,290.68,70,99,3.06,NZ,1746490717
141,zalari,53.5584,102.5065,283.31,57,69,0.64,RU,1746490848
142,mejit,10.2753,170.8646,300.42,79,9,9.0,MH,1746490849
143,villa de leyva,5.645,-73.5667,288.43,97,100,1.3,CO,1746490850
144,la libertad,-2.2333,-80.9,298.96,83,75,0.0,EC,1746490851
145,tumayr,25.7039,45.868,296.36,21,0,4.82,SA,1746490852
146,walker,30.7335,-95.5669,290.03,94,100,4.63,US,1746490624
147,yasnyy,51.0333,59.8742,288.8,40,100,4.41,RU,1746490855
148,luba,3.4568,8.5547,300.65,81,87,2.51,GQ,1746490856
149,carnarvon,-24.8667,113.6333,297.15,51,99,6.1,AU,1746490857
150,san luis de la loma,17.2706,-100.8939,301.72,71,84,4.26,MX,1746490858
151,tralee,52.2704,-9.7026,279.5,92,28,0.89,IE,1746490859
152,farafangana,-22.8167,47.8333,294.17,83,100,4.59,MG,1746490860
153,kasongo-lunda,-6.4667,16.8167,294.16,96,100,0.67,CD,1746490862
154,minas de marcona,-15.2119,-75.1103,288.77,76,82,4.53,PE,1746490863
155,barra de santo antonio,-9.4047,-35.5072,299.65,78,35,1.72,BR,1746490864
156,tolanaro,-25.0319,46.9987,293.1,74,80,3.79,MG,1746490865
157,longyearbyen,78.2186,15.6401,268.06,68,75,4.12,SJ,1746490866
158,belyy yar,53.6039,91.3903,283.09,71,0,5.0,RU,1746490869
159,neryungri,56.6709,124.6491,272.81,87,89,2.82,RU,1746490870
160,brookings,44.3114,-96.7984,298.81,30,0,4.12,US,1746490590
161,abadan,30.3392,48.3043,299.12,36,0,4.12,IR,1746490872
162,burang,30.25,81.1667,272.58,85,97,1.59,CN,1746490873
163,matiri,-10.75,34.9,287.94,95,58,1.36,TZ,1746490875
164,wotho,10.1657,166.0102,300.56,79,19,9.42,MH,1746490876
165,touros,-5.1989,-35.4608,299.32,74,12,4.95,BR,1746490877
166,mugia,43.1041,-9.2179,284.21,71,1,9.17,ES,1746490881
167,tannum sands,-23.9504,151.3693,296.34,73,75,5.14,AU,1746490882
168,lompoc,34.6391,-120.4579,292.67,69,0,5.66,US,1746490883
169,marsh harbour,26.5412,-77.0636,298.19,81,33,4.81,BS,1746490884
170,palikir - national government center,6.9248,158.1611,303.62,71,100,6.17,FM,1746490886
171,north platte,41.1239,-100.7654,297.09,37,20,6.17,US,1746490598
172,olyokminsk,60.3736,120.4264,276.82,79,99,0.73,RU,1746490888
173,quellon,-43.1167,-73.6167,282.95,91,100,10.04,CL,1746490889
174,makoua,0.0069,15.6333,295.28,98,100,0.92,CG,1746490890
175,dondo,-19.6094,34.7431,296.88,86,0,2.46,MZ,1746490891
176,caleta de carquin,-11.0925,-77.6267,292.73,84,73,2.64,PE,1746490893
177,qamdo,31.1667,97.2333,273.81,92,100,3.29,CN,1746490894
178,mezhdurechenskiy,59.6,65.9333,282.85,96,92,3.63,RU,1746490895
179,el nido,11.1858,119.3956,303.79,73,86,1.81,PH,1746490896
180,cill airne,52.05,-9.5167,279.13,91,29,1.28,IE,1746490897
181,lebu,-37.6167,-73.65,283.17,78,1,1.62,CL,1746490898
182,ma'rib,15.4591,45.3253,298.91,47,65,3.96,YE,1746490900
183,naze,28.3667,129.4833,296.66,86,88,7.19,JP,1746490663
184,santa barbara,34.7333,-120.0343,291.99,56,0,4.12,US,1746490880
185,chui,-33.6971,-53.4616,289.84,92,100,1.77,UY,1746490903
186,byron bay,-28.65,153.6167,294.13,81,80,2.24,AU,1746490905
187,tazovsky,67.4667,78.7,273.66,100,100,2.56,RU,1746490906
188,al kharijah,25.4514,30.5464,293.81,27,0,3.68,EG,1746490907
189,san pedro pochutla,15.7333,-96.4667,303.99,58,67,3.82,MX,1746490908
190,norton,-17.8833,30.7,282.48,84,0,2.06,ZW,1746490909
191,margaret river,-33.95,115.0667,289.85,74,100,3.67,AU,1746490910
192,nemuro,43.3236,145.575,281.01,79,99,5.22,JP,1746490913
193,vilyuchinsk,52.9306,158.4028,279.3,98,100,0.9,RU,1746490914
194,hamilton,39.1834,-84.5333,287.54,83,75,3.6,US,1746490915
195,port lincoln,-34.7333,135.8667,292.31,75,2,7.16,AU,1746490916
196,tongchuanshi,35.0806,109.0897,289.89,15,82,0.26,CN,1746490917
197,porto novo,6.4965,2.6036,300.53,80,62,3.31,BJ,1746490633
198,smithers,54.7804,-127.1743,285.33,54,100,4.12,CA,1746490920
199,mendoza,-32.8908,-68.8272,288.28,45,1,1.41,AR,1746490530
200,timimoun,29.2639,0.231,298.36,10,0,1.54,DZ,1746490923
201,puerto baquerizo moreno,-0.9,-89.6,297.49,84,22,3.29,EC,1746490924
202,mangrol,21.1167,70.1167,300.72,87,37,6.74,IN,1746490925
203,nongpoh,25.9,91.8833,292.86,78,12,1.61,IN,1746490927
204,fada,7.25,4.0667,297.05,99,93,1.12,NG,1746490928
205,mahalapye,-23.1041,26.8142,286.74,60,0,1.03,BW,1746490929
206,iskateley,67.6803,53.1512,274.3,99,100,5.31,RU,1746490930
207,navan,53.6528,-6.6814,277.72,85,1,0.29,IE,1746490931
208,narimanov,46.6927,47.8498,285.43,95,1,4.21,RU,1746490932
209,argo,37.6333,22.7333,291.9,51,17,2.11,GR,1746490934
210,atafu village,-8.5421,-172.5159,301.72,70,96,3.15,TK,1746490935
211,kinel'-cherkassy,53.4706,51.4743,287.46,60,99,4.49,RU,1746490936
212,nova vicosa,-17.8919,-39.3719,296.92,81,50,5.12,BR,1746490696
213,tobruk,32.0836,23.9764,295.49,35,60,4.53,LY,1746490938
214,mount isa,-20.7333,139.5,298.02,57,17,6.69,AU,1746490939
215,fale old settlement,-9.3852,-171.2468,301.9,70,100,3.88,TK,1746490940
216,tiksi,71.6872,128.8694,262.55,92,100,3.42,RU,1746490700
217,timbuktu,16.7735,-3.0074,306.06,9,20,5.17,ML,1746490943
218,nguigmi,14.2495,13.1092,299.06,13,3,5.08,NE,1746490944
219,hithadhoo,-0.6,73.0833,301.67,75,100,7.35,MV,1746490945
220,jamestown,42.097,-79.2353,288.72,98,75,2.06,US,1746490690
221,stonehaven,56.9637,-2.2118,276.44,96,44,1.34,GB,1746490947
222,santa cruz,-17.8,-63.1667,298.85,83,20,2.57,BO,1746490617
223,malango,-2.9627,119.9001,292.38,99,100,0.92,ID,1746490950
224,rio verde de mato grosso,-18.9181,-54.8442,297.07,60,58,2.29,BR,1746490951
225,ca mau,9.1769,105.15,300.62,84,17,1.56,VN,1746490952
226,wynyard,-41.0,145.7167,289.92,82,95,2.68,AU,1746490953
227,utrik,11.2278,169.8474,300.28,78,36,8.67,MH,1746490955
228,taoudenni,22.6783,-3.9836,306.44,14,38,4.56,ML,1746490956
229,rio preto da eva,-2.6994,-59.6997,297.73,83,21,0.88,BR,1746490700
230,samal,7.0744,125.7083,300.19,94,75,1.54,PH,1746490958
231,knyaze-volkonskoye,48.4642,135.4567,285.34,52,7,5.07,RU,1746490959
232,kolonia,50.9333,6.95,283.78,74,0,2.06,DE,1746490960
233,road town,18.4167,-64.6167,299.17,78,20,5.14,VG,1746490962
234,yuzhno-kurilsk,44.0306,145.8556,282.1,74,34,2.05,RU,1746490963
235,ghanzi,-21.5667,21.7833,288.22,54,0,3.34,BW,1746490964
236,matinha,-3.1006,-45.0336,297.92,87,25,1.78,BR,1746490966
237,nemyriv,48.9708,28.8378,282.83,82,100,4.23,UA,1746490967
238,sarangani,5.4033,125.4636,302.14,72,93,3.61,PH,1746490969
239,invercargill,-46.4,168.35,287.05,74,72,3.58,NZ,1746490970
240,grand falls-windsor,48.9332,-55.6649,275.1,77,74,3.58,CA,1746490794
241,mankivka,48.9637,30.3339,282.99,84,100,4.28,UA,1746490972
242,truth or consequences,33.1284,-107.2528,288.28,38,100,7.2,US,1746490973
243,villa ocampo,-28.4875,-59.3551,296.56,84,98,2.85,AR,1746490975
244,sillamae,59.3997,27.7547,276.4,88,100,3.92,EE,1746490977
245,mount gambier,-37.8333,140.7667,290.44,79,64,4.92,AU,1746490978
246,udachny,66.4167,112.4,272.81,95,100,3.18,RU,1746490979
247,bodaybo,57.8506,114.1933,276.23,90,100,0.91,RU,1746490980
248,ancud,-41.8697,-73.8203,284.57,80,100,8.4,CL,1746490785
249,praia da vitoria,38.7333,-27.0667,290.29,94,75,8.46,PT,1746490983
250,hanceville,34.0607,-86.7675,292.13,70,76,0.77,US,1746490984
251,petropavlovsk-kamchatsky,53.0452,158.6483,278.48,93,100,3.0,RU,1746490986
252,boende,-0.2167,20.8667,292.79,99,93,1.06,CD,1746490987
253,vilyuysk,63.7553,121.6247,274.74,82,53,1.54,RU,1746490988
254,la passe,45.5549,-0.8967,282.09,73,74,5.44,FR,1746490989
255,san patricio,28.017,-97.5169,300.12,86,74,7.49,US,1746490990
256,camana,-16.6228,-72.7111,292.13,86,32,1.79,PE,1746490992
257,kayangel,8.0823,134.7173,300.06,81,96,2.58,PW,1746490993
258,bengkulu,-3.8004,102.2655,298.04,90,98,1.69,ID,1746490994
259,manor,19.75,72.9167,300.4,75,33,2.84,IN,1746490995
260,tsetserleg,47.475,101.4542,276.44,42,26,2.16,MN,1746490997
261,kone,-21.0595,164.8658,301.54,58,15,1.19,NC,1746490999
262,musoma,-1.5,33.8,293.71,83,100,2.06,TZ,1746491000
263,kaa-khem,51.6833,94.7333,279.27,83,100,1.21,RU,1746491001
264,usinsk,65.9939,57.5281,274.13,93,100,3.96,RU,1746490744
265,cabedelo,-6.9811,-34.8339,298.52,81,13,4.37,BR,1746491003
266,dunedin,-45.8742,170.5036,286.37,74,61,1.34,NZ,1746491005
267,zaozersk,69.4005,32.4476,268.57,97,100,2.25,RU,1746491006
268,port isabel,26.0734,-97.2086,301.17,82,75,7.72,US,1746491007
269,puerto deseado,-47.7503,-65.8938,283.37,70,53,6.32,AR,1746491008
270,nakuru,-0.2833,36.0667,287.51,94,99,0.38,KE,1746491009
271,bubaque,11.2833,-15.8333,299.2,76,78,5.36,GW,1746491010
272,new norfolk,-42.7826,147.0587,291.44,63,85,5.56,AU,1746491012
273,georgetown,5.4112,100.3354,300.11,92,20,2.24,MY,1746490884
274,canutama,-6.5339,-64.3831,297.82,80,78,1.19,BR,1746491014
275,opuwo,-18.0607,13.84,292.61,40,0,2.63,NA,1746491015
276,zimapan,20.75,-99.35,301.66,29,26,2.41,MX,1746491016
277,prince edward,44.0001,-77.2495,287.05,97,100,0.89,CA,1746491018
278,prince rupert,54.3161,-130.3201,282.2,87,100,16.46,CA,1746490972
279,penhalonga,-18.8911,32.6978,281.36,91,2,0.83,ZW,1746491021
280,lusacan,13.9528,121.3469,302.78,78,100,1.74,PH,1746491022
281,bentota,6.4254,79.9948,300.45,81,94,1.7,LK,1746491023
282,east london,-33.0153,27.9116,294.36,50,0,3.59,ZA,1746491025
283,lihue,21.9789,-159.3672,299.92,74,40,5.66,US,1746491026
284,busayra,30.7376,35.6078,284.88,54,0,1.18,JO,1746491027
285,callao,-12.0667,-77.15,296.88,82,20,1.54,PE,1746491028
286,sao jose de ribamar,-2.5619,-44.0542,301.36,82,26,4.75,BR,1746490760
287,sinop,41.7711,34.8709,283.01,54,0,3.24,TR,1746491032
288,castillos,-34.1667,-53.8333,288.88,95,98,1.11,UY,1746491033
289,codrington,-38.2667,141.9667,291.42,76,72,7.04,AU,1746491034
290,happy valley-goose bay,53.3168,-60.3315,275.32,35,75,3.09,CA,1746491035
291,basco,20.4487,121.9702,301.44,75,46,6.05,PH,1746491036
292,charters towers,-20.1,146.2667,295.93,65,3,5.46,AU,1746491037
293,keflavik,64.0049,-22.5624,280.39,93,75,4.63,IS,1746491039
294,soe,-9.8607,124.284,294.43,90,100,1.33,ID,1746491040
295,fort wellington,6.4,-57.6,299.26,85,33,3.88,GY,1746491041
296,bokhan,53.153,103.7714,283.36,41,97,1.55,RU,1746491042
297,as sulayyil,20.4607,45.5779,302.58,21,93,7.36,SA,1746491043
298,cabo san lucas,22.8909,-109.9124,294.68,44,0,10.73,MX,1746490829
299,mancora,-4.1078,-81.0475,297.65,71,61,3.88,PE,1746491046
300,sarankhola,22.3082,89.7897,299.16,83,25,1.18,BD,1746491048
301,nantucket,41.2835,-70.0995,285.21,94,75,5.66,US,1746490768
302,mirabad,30.4362,61.8383,298.48,15,0,5.59,AF,1746491050
303,wagar,16.1525,36.2032,297.92,44,92,3.95,SD,1746491051
304,francistown,-21.17,27.5079,285.49,69,0,3.13,BW,1746491052
305,alaghsas,17.0187,8.0168,299.16,9,4,4.63,NE,1746491053
306,saint-pierre,-21.3393,55.4781,297.97,88,100,5.66,RE,1746491055
307,nowy tomysl,52.3195,16.1284,276.59,75,37,1.89,PL,1746491056
308,vorgashor,67.5833,63.95,268.56,95,98,3.06,RU,1746490896
309,hadibu,12.65,54.0333,301.61,79,9,2.83,YE,1746491058
310,alofi,-19.0595,-169.9187,301.09,61,40,9.26,NU,1746491059
311,palmer,42.1584,-72.3287,285.1,76,100,1.34,US,1746490957
312,xichang,27.8964,102.2634,290.95,85,100,2.11,CN,1746491062
313,nouadhibou,20.931,-17.0347,294.14,64,100,6.17,MR,1746491063
314,griffith,41.5284,-87.4237,286.1,81,75,5.14,US,1746491064
315,wauchope,-31.45,152.7333,294.9,73,2,1.42,AU,1746491066
316,dudinka,69.4058,86.1778,269.94,94,99,2.18,RU,1746491067
317,tura,25.5198,90.2201,296.46,74,16,1.15,IN,1746491069
318,sinabang,2.4803,96.3801,299.59,82,98,1.61,ID,1746491070
319,pangoa,-12.1167,-73.0,295.11,88,84,0.97,PE,1746491071
320,volgodonsk,47.5136,42.1514,287.51,73,55,2.4,RU,1746491072
321,rio grande,-32.035,-52.0986,293.0,96,100,4.06,BR,1746490952
322,masuguru,-11.3667,38.4167,292.82,90,24,2.01,TZ,1746491075
323,kalengwa,-13.4659,25.0027,291.11,70,100,3.48,ZM,1746491076
324,ghatanji,20.1333,78.3167,302.59,36,27,3.72,IN,1746491077
325,vershino-darasunskiy,52.35,115.5167,280.79,31,4,0.59,RU,1746491079
326,amga,60.8953,131.9608,278.97,53,22,2.99,RU,1746491080
327,benghazi,32.1167,20.0667,296.26,27,23,5.69,LY,1746491081
328,klyuchi,52.2667,79.1667,283.26,55,40,3.32,RU,1746491082
329,batumi,41.6416,41.6359,284.14,87,0,2.57,GE,1746491083
330,fisterra,42.9049,-9.2629,285.1,68,0,9.64,ES,1746491085
331,badiyah,22.45,58.8,300.39,54,1,0.64,OM,1746491086
332,tukrah,32.5341,20.5791,297.19,21,32,4.6,LY,1746491087
333,bom jesus,-9.0744,-44.3586,299.3,54,86,0.76,BR,1746490842
334,qarqaraly,49.4058,75.4742,282.16,54,3,2.45,KZ,1746491089
335,goz beida,13.95,20.55,299.52,15,0,3.72,TD,1746491090
336,egilsstadir,65.2653,-14.3948,283.1,71,75,6.17,IS,1746491092
337,tabina,7.4669,123.4081,300.79,83,96,0.81,PH,1746491093
338,bonthe,7.5264,-12.505,299.66,83,95,0.66,SL,1746491094
339,port moresby,-9.4431,147.1797,300.83,78,75,5.14,PG,1746491095
340,kijang,35.2442,129.2139,285.0,84,100,4.24,KR,1746491096
341,kani keli,-12.9536,45.1033,300.74,77,33,7.27,YT,1746491097
342,sao joao da barra,-21.6403,-41.0511,296.38,71,0,5.48,BR,1746491100
343,vadso,70.0744,29.7487,272.24,74,100,6.69,NO,1746491101
344,alice springs,-23.7,133.8833,293.9,46,23,1.54,AU,1746491102
345,trinity beach,-16.7888,145.6968,299.09,73,100,8.23,AU,1746491103
346,peace river,56.2501,-117.286,291.32,15,40,5.66,CA,1746491104
347,dryden,49.7833,-92.7503,299.31,25,0,4.12,CA,1746490900
348,plastun,44.7561,136.2939,287.02,41,75,0.89,RU,1746491107
349,umea,63.8284,20.2597,273.11,86,0,4.12,SE,1746491108
350,aioun,16.6614,-9.6149,306.79,18,14,3.1,MR,1746491109
351,murghob,38.1702,73.9667,274.79,35,0,1.87,TJ,1746491110
352,tidjikja,18.5564,-11.4271,308.23,18,82,2.38,MR,1746491112
353,mossel bay,-34.1831,22.146,287.83,84,0,2.49,ZA,1746491113
354,burutu,5.3509,5.5076,299.42,87,100,2.42,NG,1746491115
355,manadhoo,5.7667,73.3833,302.42,73,81,6.15,MV,1746491116
356,constantia,44.1833,28.65,285.76,92,100,2.46,RO,1746491117
357,issa,53.8705,44.8578,284.77,87,98,4.03,RU,1746491118
358,rikaze,29.25,88.8833,275.55,96,100,2.08,CN,1746491120
359,huangnihe,43.5583,128.0239,282.5,55,78,2.77,CN,1746491121
360,bain-de-bretagne,47.8442,-1.6849,281.76,83,37,4.13,FR,1746491122
361,rio gallegos,-51.6226,-69.2181,280.18,81,0,4.63,AR,1746491076
362,saint-joseph,-21.3667,55.6167,297.36,87,83,6.26,RE,1746491124
363,mawlamyinegyunn,16.3833,95.2667,300.19,74,12,2.39,MM,1746491125
364,ritchie,-29.038,24.6028,287.41,56,17,3.21,ZA,1746491126
365,naliya,23.2667,68.8333,300.49,83,67,5.52,IN,1746491128
366,pasuquin,18.3328,120.6177,304.12,74,75,1.03,PH,1746491129
367,ribas do rio pardo,-20.4431,-53.7592,295.57,65,13,1.64,BR,1746491130
368,lichinga,-13.3128,35.2406,287.2,88,100,6.17,MZ,1746491131
369,villa gesell,-37.2639,-56.973,286.82,75,13,5.26,AR,1746491132
370,luleburgaz,41.4039,27.3592,287.36,71,76,1.15,TR,1746491133
371,sidareja,-7.4846,108.7923,300.18,95,86,0.7,ID,1746491135
372,new plymouth,-39.0667,174.0833,290.32,85,42,2.34,NZ,1746491136
373,shakiso,5.75,38.9167,287.82,98,100,0.98,ET,1746491137
374,la mira,18.035,-102.3266,301.72,64,90,4.68,MX,1746491139
375,carnot,4.9409,15.8665,292.96,94,100,0.78,CF,1746491140
376,vila franca do campo,37.7167,-25.4333,291.42,99,68,2.67,PT,1746491141
377,coquimbo,-29.9533,-71.3436,287.0,88,100,1.54,CL,1746490900
378,alo,6.5486,4.2686,299.88,86,99,2.72,NG,1746491143
379,poyang,28.9924,116.6675,295.24,80,18,2.87,CN,1746491145
380,waarschoot,51.1533,3.6073,281.46,67,36,4.35,BE,1746491146
381,felege neway,6.3,36.8833,290.47,99,98,0.96,ET,1746491147
382,hovd,48.0056,91.6419,282.52,44,26,2.57,MN,1746491148
383,san julian,21.0167,-102.1667,301.27,14,89,7.22,MX,1746491149
384,ulan bator,47.9077,106.8832,278.22,70,75,2.0,MN,1746491069
385,bagan,54.1001,77.6646,283.51,60,70,3.23,RU,1746491152
386,meadow lake,34.8014,-106.5436,287.41,46,100,10.36,US,1746491153
387,taroa,8.7058,171.2275,300.74,80,31,8.53,MH,1746491154
388,fort drum,44.0584,-75.7619,289.75,82,100,4.39,US,1746491155
389,pirae,-17.5167,-149.5333,302.16,65,75,1.54,PF,1746491156
390,shenjiamen,29.9576,122.298,292.32,79,67,1.93,CN,1746491157
391,awjilah,29.1081,21.2869,297.85,13,53,4.09,LY,1746491158
392,northam,51.0333,-4.2167,279.19,75,21,3.72,GB,1746491160
393,owando,-0.4819,15.8999,295.22,97,100,0.5,CG,1746491161
394,bardai,11.65,7.2333,299.73,15,32,3.21,NG,1746491162
395,hami,42.8,93.45,293.36,21,84,8.45,CN,1746491163
396,port blair,11.6667,92.75,298.17,94,40,1.03,IN,1746491101
397,oriximina,-1.7656,-55.8661,300.38,79,91,1.38,BR,1746491166
398,harstad,68.799,16.5293,274.9,70,40,1.34,NO,1746491167
399,hammerfest,70.6634,23.6821,272.4,64,100,4.12,NO,1746491168
400,soio,-6.1349,12.3689,297.98,91,96,2.56,AO,1746491169
401,tulun,54.5611,100.5792,281.37,65,79,1.26,RU,1746491170
402,cidreira,-30.1811,-50.2056,294.18,80,64,2.65,BR,1746491172
403,tshela,-4.9833,12.9333,295.8,98,78,0.37,CD,1746491173
404,poso,-1.3959,120.7524,298.25,85,100,2.32,ID,1746491174
405,bikenibeu village,1.3673,173.1241,301.08,80,6,6.36,KI,1746491175
406,paka,4.6374,103.4368,298.76,92,52,1.3,MY,1746491176
407,kavieng,-2.5744,150.7967,302.5,70,34,2.72,PG,1746491177
408,sitia,35.2,26.0986,291.49,61,36,1.26,GR,1746491179
409,tegueste,28.5167,-16.3167,288.7,80,40,2.57,ES,1746491180
410,aripuana,-9.1667,-60.6333,297.44,87,100,1.1,BR,1746491181
411,sorong,-0.8833,131.25,301.28,76,100,1.31,ID,1746491182
412,bintulu,3.1667,113.0333,299.38,88,20,2.24,MY,1746491183
413,midvagur,62.0511,-7.1939,280.61,93,100,3.09,FO,1746491185
414,frontera,26.9333,-101.45,306.11,41,48,3.13,MX,1746491186
415,faya-largeau,17.9257,19.1043,297.26,10,0,5.88,TD,1746491187
416,magadan,59.5667,150.8,275.56,77,83,1.78,RU,1746491188
417,kearney,40.6995,-99.0815,296.1,33,0,5.66,US,1746490945
418,trevelin,-43.0858,-71.4639,277.62,84,72,2.31,AR,1746490915
419,fort st. john,56.2499,-120.8529,288.09,29,20,7.72,CA,1746491192
420,brokopondo,4.75,-55.1667,299.05,83,56,3.96,SR,1746491193
421,dalai,45.5,124.3,286.6,37,25,4.97,CN,1746491195
422,usol'ye,59.4268,56.6808,284.82,93,96,4.14,RU,1746491196
423,aral,40.5156,81.2636,293.39,13,57,3.66,CN,1746491197
424,petukhovo,55.0692,67.9019,286.5,74,82,3.58,RU,1746491198
425,kaitong,44.8135,123.15,285.99,44,26,4.92,CN,1746491199
426,kutum,14.2,24.6667,293.71,13,0,3.2,SD,1746491201
427,illizi,26.4833,8.4667,302.56,23,72,2.25,DZ,1746491202
428,tamanrasset,22.785,5.5228,296.1,10,0,2.06,DZ,1746491203
429,horta,38.5333,-28.6333,289.83,88,87,4.92,PT,1746491106
430,sogndal,61.2283,7.1003,278.36,64,90,2.06,NO,1746491205
431,fortuna,40.5982,-124.1573,291.44,58,40,0.89,US,1746491206
432,les avirons,-21.2418,55.3394,296.2,88,100,5.66,RE,1746491207
433,yorkton,51.2167,-102.4677,287.06,44,0,1.03,CA,1746491209
434,nagqu,31.5,92.0,271.16,71,96,0.52,CN,1746491210
435,malvan,16.0667,73.4667,299.09,86,45,3.88,IN,1746491211
436,la sarre,48.8002,-79.1996,290.3,43,36,2.55,CA,1746491212
437,lorengau,-2.0226,147.2712,301.46,79,72,0.72,PG,1746491213
438,senador jose porfirio,-2.5908,-51.9542,297.02,96,52,1.08,BR,1746491214
439,paradip garh,20.3167,86.6167,300.36,87,56,3.06,IN,1746491216
440,lianzhou,24.7811,112.3825,296.14,92,94,1.29,CN,1746491217
441,pimentel,-6.8367,-79.9342,294.31,73,100,8.75,PE,1746491218
442,kas,36.2018,29.6377,289.62,67,22,1.21,TR,1746491219
443,val-d'or,48.1002,-77.7828,292.2,26,75,1.54,CA,1746491220
444,borba,-4.3878,-59.5939,299.87,73,76,1.1,BR,1746491221
445,ust'-ilimsk,58.0006,102.6619,277.27,76,29,1.94,RU,1746491223
446,chiantla,15.3547,-91.4583,290.92,77,75,5.14,GT,1746491224
447,shagonar,51.5333,92.8,279.99,85,100,2.2,RU,1746491225
448,tomohon,1.3346,124.8392,295.82,85,100,0.37,ID,1746491227
449,genhe,50.7833,121.5167,281.5,32,46,0.73,CN,1746491228
450,berezovyy,51.6667,135.7,277.87,90,100,0.42,RU,1746491230
451,ha'il,27.5219,41.6907,292.16,24,0,3.09,SA,1746491105
452,vuktyl,63.8567,57.3094,276.89,97,100,4.21,RU,1746491232
453,aqadyr,48.2553,72.8483,282.78,54,0,1.0,KZ,1746491233
454,kybartai,54.6386,22.7632,273.86,86,0,2.96,LT,1746491234
455,hinton,53.4001,-117.5857,288.82,22,41,2.7,CA,1746491236
456,novodvinsk,64.4165,40.8122,275.01,93,100,4.91,RU,1746491237
457,kisangani,0.5167,25.2,292.93,91,43,0.75,CD,1746491238
458,el calafate,-50.3408,-72.2768,276.12,84,99,0.48,AR,1746491239
459,airway heights,47.6446,-117.5933,293.23,22,20,3.6,US,1746491240
460,ji'an,27.1172,114.9793,296.58,80,48,1.1,CN,1746491241
461,sechura,-5.5569,-80.8222,297.1,67,28,7.85,PE,1746491243
462,cole harbour,44.6724,-63.4751,283.24,70,96,4.63,CA,1746491244
463,kassala,15.451,36.4,299.37,37,72,2.92,SD,1746491245
464,yanji,42.9075,129.5078,284.98,56,94,3.04,CN,1746491246
465,nema,57.5067,50.5011,283.49,94,99,2.48,RU,1746491247
466,portland,45.5234,-122.6762,298.51,28,20,4.63,US,1746491248
467,north battleford,52.7834,-108.2847,289.2,20,20,8.75,CA,1746491250
468,kesabpur,22.9167,89.2167,300.21,75,61,2.07,BD,1746491239
469,isiro,2.7739,27.616,291.55,89,74,1.1,CD,1746491252
470,carbondale,37.7273,-89.2168,288.15,73,100,2.06,US,1746491253
471,namibe,-15.1961,12.1522,296.65,63,4,2.21,AO,1746491255
472,chhagalnaiya,23.03,91.5069,297.92,84,18,1.86,BD,1746491256
473,padang,-0.9492,100.3543,298.94,85,100,1.67,ID,1746491070
474,kenora,49.8167,-94.4337,298.69,25,0,4.63,CA,1746491120
475,cooper's town,26.8667,-77.5167,297.58,85,18,4.22,BS,1746491260
476,bayganin,48.6947,55.8742,289.36,36,95,4.84,KZ,1746491261
477,yermentau,51.6214,73.1069,285.5,57,34,4.03,KZ,1746491263
478,hukumati azrah,34.1736,69.6457,280.69,71,0,0.26,AF,1746491264
479,port elizabeth,-33.918,25.5701,290.55,62,0,5.14,ZA,1746491265
480,maues,-3.3836,-57.7186,297.82,88,50,1.57,BR,1746491266
481,flying fish cove,-10.4217,105.6791,299.97,94,99,5.14,CX,1746491267
482,nizhneangarsk,55.7833,109.55,275.26,72,73,0.99,RU,1746491268
483,morden,49.1919,-98.1014,290.07,39,22,11.32,CA,1746491270
484,chernyshevskiy,63.0128,112.4714,274.12,90,100,0.95,RU,1746491271
485,sirte,31.2089,16.5887,300.84,19,32,6.56,LY,1746491272
486,kars,40.602,43.095,280.4,100,75,2.57,TR,1746491273
487,kosh-agach,50.0,88.6667,277.26,69,53,3.39,RU,1746491275
488,rongelap,11.1635,166.8941,300.39,77,33,9.1,MH,1746491276
489,kodinsk,58.6881,99.1844,278.61,74,68,3.02,RU,1746491277
490,medina,24.4686,39.6142,297.39,13,0,3.6,SA,1746491102
491,prince albert,53.2001,-105.7677,289.12,14,20,7.72,CA,1746491279
492,mosjoen,65.836,13.1908,277.44,70,100,0.51,NO,1746491107
493,richards bay,-28.783,32.0377,289.93,88,0,3.9,ZA,1746491282
494,arquitecto tomas romero pereira,-26.4833,-55.25,294.95,68,35,1.68,PY,1746491283
495,baotou,40.6522,109.8222,283.3,43,5,1.67,CN,1746491284
496,belomorsk,64.5232,34.7668,273.88,88,65,3.43,RU,1746491286
497,sisimiut,66.9395,-53.6735,268.69,82,100,3.27,GL,1746491287
498,sambava,-14.2667,50.1667,296.12,85,17,3.84,MG,1746491288
499,tavda,58.0425,65.2726,283.41,97,87,2.57,RU,1746491289
500,carbonear,47.7332,-53.2148,275.45,77,53,5.23,CA,1746491189
501,zhongxing,33.7039,118.6792,291.68,54,9,8.71,CN,1746491292
502,menaka,15.9182,2.4022,304.43,15,14,3.92,ML,1746491293
503,eureka,40.8021,-124.1637,292.49,66,33,4.92,US,1746491068
504,antofagasta,-23.65,-70.4,289.75,90,26,1.25,CL,1746491221
505,colonia,50.9333,6.95,283.78,74,0,2.06,DE,1746491297
506,beyneu,45.3167,55.2,296.1,31,100,6.75,KZ,1746491298
507,moroto,2.5345,34.6666,291.75,88,100,1.51,UG,1746491299
508,madang,-5.2246,145.7966,302.75,68,100,0.62,PG,1746491301
509,manta,-0.95,-80.7333,301.03,69,40,4.12,EC,1746491205
510,muswellbrook,-32.2667,150.9,292.46,80,4,1.33,AU,1746491303
511,nabire,-3.3667,135.4833,301.4,70,99,0.27,ID,1746491304
512,syumsi,57.1111,51.6149,284.28,97,92,2.02,RU,1746491306
513,haiku-pauwela,20.9219,-156.3051,301.16,63,40,13.41,US,1746491308
514,myshkin,57.7897,38.4545,274.97,81,98,3.6,RU,1746491309
515,nassjo,57.6531,14.6968,276.22,82,15,2.17,SE,1746491310
516,guozhen,34.3659,107.359,291.8,17,90,1.04,CN,1746491312
517,aguiar da beira,40.7832,-7.5269,281.82,98,33,1.16,PT,1746491313
518,tobelo,1.7284,128.0095,301.27,80,98,0.96,ID,1746491314
519,nang rong,14.6377,102.7914,301.34,74,99,1.65,TH,1746491315
520,nueva gerona,21.8833,-82.8,301.88,63,19,2.94,CU,1746491316
521,savanna-la-mar,18.219,-78.1332,300.89,87,66,0.3,JM,1746491318
522,totness,5.8833,-56.3167,298.61,88,85,4.17,SR,1746491319
523,la fleche,47.6982,-0.0755,279.78,86,18,3.64,FR,1746491320
524,ascension,30.2169,-90.9001,297.64,63,33,0.45,US,1746491321
525,warrnambool,-38.3833,142.4833,292.45,76,32,7.74,AU,1746491322
526,princeville,45.7668,-61.2985,277.77,67,0,2.57,CA,1746491325
527,viedma,-40.8135,-62.9967,282.94,73,89,4.47,AR,1746491035
528,masterton,-40.9597,175.6575,288.54,48,0,1.34,NZ,1746491077
529,el ayote,12.1905,-85.2874,299.03,73,88,2.74,NI,1746491328
530,khandyga,62.6667,135.6,278.56,53,100,1.53,RU,1746491329
531,brookhaven,31.5791,-90.4407,295.89,61,30,0.26,US,1746491330
532,tvoroyri,61.5556,-6.8111,281.53,82,100,6.89,FO,1746491332
533,kete krachi,7.7939,-0.0498,300.72,76,87,6.41,GH,1746491333
534,lospalos,-8.5186,127.0025,296.13,95,100,1.74,TL,1746491334
535,dongyuan,24.9174,118.7524,298.74,81,99,1.56,CN,1746491335
536,nea alikarnassos,35.3333,25.1667,294.23,63,20,3.09,GR,1746491336
537,isla mujeres,21.2311,-86.731,301.53,78,14,5.2,MX,1746491337
538,huarmey,-10.0681,-78.1522,293.35,80,79,3.29,PE,1746491339
539,landeck,47.1301,10.5636,277.97,88,100,1.1,AT,1746491340
540,la ronge,55.1001,-105.2842,281.29,39,20,6.17,CA,1746491341
541,taghazout,30.5426,-9.7112,290.2,84,75,3.24,MA,1746491342
542,bandarbeyla,9.4942,50.8122,301.57,77,46,3.65,SO,1746491343
543,phumi veal sre,10.9808,104.7783,301.14,80,9,2.63,KH,1746491344
544,yuanping,38.7153,112.7575,285.11,43,0,2.59,CN,1746491346
545,panna,24.7167,80.2,298.9,45,31,3.4,IN,1746491347
546,el granada,37.5027,-122.4694,292.91,64,0,5.14,US,1746491348
547,rio do sul,-27.2142,-49.6431,292.34,90,30,0.88,BR,1746491349
548,puro,12.4841,123.3827,302.33,71,92,0.83,PH,1746491350
549,itacare,-14.2775,-38.9967,296.92,90,18,4.4,BR,1746491351
550,katsuura,35.1333,140.3,288.74,89,100,8.45,JP,1746491353
551,al muwayh,22.4333,41.7583,296.08,15,0,3.95,SA,1746491354
552,joao pinheiro,-17.7425,-46.1725,291.76,58,3,3.01,BR,1746491355
553,komsomol'skiy,43.9783,46.6985,288.71,74,82,3.65,RU,1746491356
554,junin,-34.5838,-60.9433,288.75,95,100,3.98,AR,1746491229
555,sainte-agathe-des-monts,46.0501,-74.2825,288.7,63,100,3.68,CA,1746491120
556,gebeit,21.0667,36.3167,291.46,50,0,2.2,SD,1746491360
557,diego martin,10.7005,-61.5342,298.03,84,76,3.32,TT,1746491361
558,semnan,35.5729,53.3971,295.7,27,40,0.71,IR,1746491362
559,alta,69.9689,23.2717,272.74,74,75,4.63,NO,1746491265
560,wanning,18.8003,110.3967,301.0,81,36,4.67,CN,1746491364
561,price,39.5994,-110.8107,286.74,54,100,3.09,US,1746491366
562,sola,-13.8833,167.55,301.52,84,100,4.12,VU,1746491368
563,lappeenranta,61.0587,28.1887,275.18,69,0,2.06,FI,1746491369
564,jieshi,22.8134,115.8257,299.33,87,97,2.59,CN,1746491370
565,bonnyville,54.2668,-110.735,288.06,23,7,3.94,CA,1746491372
566,korsakov,46.6328,142.7813,285.06,77,11,4.72,RU,1746491352
567,springbok,-29.6643,17.8865,290.08,32,4,0.82,ZA,1746491374
568,glogowek,50.3536,17.8641,279.52,81,100,2.18,PL,1746491375
569,sandpoint,48.2766,-116.5533,291.88,30,33,2.68,US,1746491376
570,malvern,34.3623,-92.813,296.04,51,21,1.3,US,1746491222
571,itoman,26.1247,127.6694,298.93,100,75,5.66,JP,1746491379
572,boyolangu,-8.1181,111.8935,302.42,92,78,1.06,ID,1746491380
573,nurlat,54.4277,50.8051,286.39,72,92,5.05,RU,1746491381
574,asau,46.4333,26.4,283.08,89,100,1.34,RO,1746491382
575,markovo,57.3206,107.0881,276.66,89,100,1.61,RU,1746491383
576,chandler,33.3062,-111.8412,296.16,36,40,6.69,US,1746491384
577,copala,16.65,-98.9833,301.7,61,75,3.77,MX,1746491386
578,arraial do cabo,-22.9661,-42.0278,296.18,78,0,6.18,BR,1746491387
579,urzhar,47.093,81.6294,284.95,50,0,4.34,KZ,1746491388
580,elverum,60.8819,11.5623,276.98,58,6,2.45,NO,1746491389
581,tarauaca,-8.1614,-70.7656,296.23,96,58,0.45,BR,1746491390
